{
  "file": "antenas-claro.pdf",
  "count": 34,
  "records": [
    {
      "source_page": 5,
      "cell_id": null,
      "latitude": -28.838936,
      "longitude": -58.82137,
      "azimuth_deg": 240.0,
      "horizontal_aperture_deg": 69.0,
      "vertical_aperture_deg": null,
      "coverage_radius_km": 2.106,
      "signal_strength_dbm": null,
      "address": "Tacuari 500",
      "city": "9 DE JULIO",
      "province": "CORRIENTES"
    },
    {
      "source_page": 5,
      "cell_id": null,
      "latitude": -28.520477,
      "longitude": -59.048652,
      "azimuth_deg": 60.0,
      "horizontal_aperture_deg": 68.0,
      "vertical_aperture_deg": null,
      "coverage_radius_km": 9.126,
      "signal_strength_dbm": null,
      "address": "s/n",
      "city": "BELLA VISTA",
      "province": "CORRIENTES"
    },
    {
      "source_page": 5,
      "cell_id": null,
      "latitude": -29.150703,
      "longitude": -59.247809,
      "azimuth_deg": 350.0,
      "horizontal_aperture_deg": 67.0,
      "vertical_aperture_deg": null,
      "coverage_radius_km": 3.51,
      "signal_strength_dbm": null,
      "address": "Calle p niveiro 730",
      "city": "GOYA",
      "province": "CORRIENTES"
    },
    {
      "source_page": 5,
      "cell_id": null,
      "latitude": -29.139648,
      "longitude": -59.261661,
      "azimuth_deg": 120.0,
      "horizontal_aperture_deg": 69.0,
      "vertical_aperture_deg": null,
      "coverage_radius_km": 9.126,
      "signal_strength_dbm": null,
      "address": "s/n",
      "city": "GOYA",
      "province": "CORRIENTES"
    },
    {
      "source_page": 5,
      "cell_id": null,
      "latitude": -29.139648,
      "longitude": -59.261661,
      "azimuth_deg": 240.0,
      "horizontal_aperture_deg": 69.0,
      "vertical_aperture_deg": null,
      "coverage_radius_km": 2.106,
      "signal_strength_dbm": null,
      "address": "s/n",
      "city": "GOYA",
      "province": "CORRIENTES"
    },
    {
      "source_page": 5,
      "cell_id": null,
      "latitude": -29.150703,
      "longitude": -59.247809,
      "azimuth_deg": 270.0,
      "horizontal_aperture_deg": 67.0,
      "vertical_aperture_deg": null,
      "coverage_radius_km": 2.106,
      "signal_strength_dbm": null,
      "address": "Calle p niveiro 730",
      "city": "GOYA",
      "province": "CORRIENTES"
    },
    {
      "source_page": 5,
      "cell_id": null,
      "latitude": -29.139648,
      "longitude": -59.261661,
      "azimuth_deg": 0.0,
      "horizontal_aperture_deg": 69.0,
      "vertical_aperture_deg": null,
      "coverage_radius_km": 7.02,
      "signal_strength_dbm": null,
      "address": "s/n",
      "city": "GOYA",
      "province": "CORRIENTES"
    },
    {
      "source_page": 5,
      "cell_id": null,
      "latitude": -29.124208,
      "longitude": -59.254762,
      "azimuth_deg": 30.0,
      "horizontal_aperture_deg": 67.0,
      "vertical_aperture_deg": null,
      "coverage_radius_km": 7.956,
      "signal_strength_dbm": null,
      "address": "Pago largo y B. de Cepeda S/N",
      "city": "GOYA",
      "province": "CORRIENTES"
    },
    {
      "source_page": 5,
      "cell_id": null,
      "latitude": -28.838936,
      "longitude": -58.82137,
      "azimuth_deg": 100.0,
      "horizontal_aperture_deg": 69.0,
      "vertical_aperture_deg": null,
      "coverage_radius_km": 10.296,
      "signal_strength_dbm": null,
      "address": "Tacuari 500",
      "city": "9 DE JULIO",
      "province": "CORRIENTES"
    },
    {
      "source_page": 5,
      "cell_id": null,
      "latitude": -28.838936,
      "longitude": -58.82137,
      "azimuth_deg": 0.0,
      "horizontal_aperture_deg": 69.0,
      "vertical_aperture_deg": null,
      "coverage_radius_km": 35.2,
      "signal_strength_dbm": null,
      "address": "Tacuari 500",
      "city": "9 DE JULIO",
      "province": "CORRIENTES"
    },
    {
      "source_page": 5,
      "cell_id": null,
      "latitude": -28.512372,
      "longitude": -59.044944,
      "azimuth_deg": 190.0,
      "horizontal_aperture_deg": 67.0,
      "vertical_aperture_deg": null,
      "coverage_radius_km": 6.05,
      "signal_strength_dbm": null,
      "address": "Cordoba y 25 de Mayo S/N",
      "city": "BELLA VISTA",
      "province": "CORRIENTES"
    },
    {
      "source_page": 5,
      "cell_id": null,
      "latitude": -28.520477,
      "longitude": -59.048652,
      "azimuth_deg": 155.0,
      "horizontal_aperture_deg": 68.0,
      "vertical_aperture_deg": null,
      "coverage_radius_km": 3.51,
      "signal_strength_dbm": null,
      "address": "s/n",
      "city": "BELLA VISTA",
      "province": "CORRIENTES"
    },
    {
      "source_page": 5,
      "cell_id": null,
      "latitude": -28.838936,
      "longitude": -58.82137,
      "azimuth_deg": 240.0,
      "horizontal_aperture_deg": 60.0,
      "vertical_aperture_deg": null,
      "coverage_radius_km": 3.011,
      "signal_strength_dbm": null,
      "address": "Tacuari 500",
      "city": "9 DE JULIO",
      "province": "CORRIENTES"
    },
    {
      "source_page": 5,
      "cell_id": null,
      "latitude": -28.838936,
      "longitude": -58.82137,
      "azimuth_deg": 240.0,
      "horizontal_aperture_deg": 70.0,
      "vertical_aperture_deg": null,
      "coverage_radius_km": 15.807,
      "signal_strength_dbm": null,
      "address": "Tacuari 500",
      "city": "9 DE JULIO",
      "province": "CORRIENTES"
    },
    {
      "source_page": 5,
      "cell_id": null,
      "latitude": -28.838936,
      "longitude": -58.82137,
      "azimuth_deg": 0.0,
      "horizontal_aperture_deg": 69.0,
      "vertical_aperture_deg": null,
      "coverage_radius_km": 10.296,
      "signal_strength_dbm": null,
      "address": "Tacuari 500",
      "city": "9 DE JULIO",
      "province": "CORRIENTES"
    },
    {
      "source_page": 5,
      "cell_id": null,
      "latitude": -28.838936,
      "longitude": -58.82137,
      "azimuth_deg": 240.0,
      "horizontal_aperture_deg": 69.0,
      "vertical_aperture_deg": null,
      "coverage_radius_km": 20.0,
      "signal_strength_dbm": null,
      "address": "Tacuari 500",
      "city": "9 DE JULIO",
      "province": "CORRIENTES"
    },
    {
      "source_page": 5,
      "cell_id": null,
      "latitude": -30.086138,
      "longitude": -58.791895,
      "azimuth_deg": 75.0,
      "horizontal_aperture_deg": 69.0,
      "vertical_aperture_deg": null,
      "coverage_radius_km": 3.042,
      "signal_strength_dbm": null,
      "address": "Moreno esquina Córdoba S/N",
      "city": "SAUCE",
      "province": "CORRIENTES"
    },
    {
      "source_page": 5,
      "cell_id": null,
      "latitude": -30.086138,
      "longitude": -58.791895,
      "azimuth_deg": 170.0,
      "horizontal_aperture_deg": 69.0,
      "vertical_aperture_deg": null,
      "coverage_radius_km": 7.956,
      "signal_strength_dbm": null,
      "address": "Moreno esquina Córdoba S/N",
      "city": "SAUCE",
      "province": "CORRIENTES"
    },
    {
      "source_page": 5,
      "cell_id": null,
      "latitude": -29.796389,
      "longitude": -58.057778,
      "azimuth_deg": 330.0,
      "horizontal_aperture_deg": 69.0,
      "vertical_aperture_deg": null,
      "coverage_radius_km": 3.51,
      "signal_strength_dbm": null,
      "address": "D.HARDOY Y CHICLANA S/N",
      "city": "CURUZU CUATIA",
      "province": "CORRIENTES"
    },
    {
      "source_page": 5,
      "cell_id": null,
      "latitude": -29.796389,
      "longitude": -58.057778,
      "azimuth_deg": 60.0,
      "horizontal_aperture_deg": 69.0,
      "vertical_aperture_deg": null,
      "coverage_radius_km": 1.404,
      "signal_strength_dbm": null,
      "address": "D.HARDOY Y CHICLANA S/N",
      "city": "CURUZU CUATIA",
      "province": "CORRIENTES"
    },
    {
      "source_page": 5,
      "cell_id": null,
      "latitude": -28.75292,
      "longitude": -58.656,
      "azimuth_deg": 120.0,
      "horizontal_aperture_deg": 69.0,
      "vertical_aperture_deg": null,
      "coverage_radius_km": 35.2,
      "signal_strength_dbm": null,
      "address": "Ing Magno Tvethe 700",
      "city": "PEDRO R. FERNANDEZ",
      "province": "CORRIENTES"
    },
    {
      "source_page": 5,
      "cell_id": null,
      "latitude": -28.974181,
      "longitude": -59.100953,
      "azimuth_deg": 210.0,
      "horizontal_aperture_deg": 63.7,
      "vertical_aperture_deg": null,
      "coverage_radius_km": 9.126,
      "signal_strength_dbm": null,
      "address": "Ruta Provincial Nro. 27 Km 902",
      "city": "SANTA LUCIA",
      "province": "CORRIENTES"
    },
    {
      "source_page": 5,
      "cell_id": null,
      "latitude": -28.911696,
      "longitude": -58.936821,
      "azimuth_deg": 360.0,
      "horizontal_aperture_deg": 360.0,
      "vertical_aperture_deg": null,
      "coverage_radius_km": 17.05,
      "signal_strength_dbm": null,
      "address": "Calle belgrano 772",
      "city": "GOBERNADOR JUAN E. MARTINEZ",
      "province": "CORRIENTES"
    },
    {
      "source_page": 5,
      "cell_id": null,
      "latitude": -27.499811,
      "longitude": -58.719477,
      "azimuth_deg": 30.0,
      "horizontal_aperture_deg": 67.0,
      "vertical_aperture_deg": null,
      "coverage_radius_km": 4.914,
      "signal_strength_dbm": null,
      "address": "Moreno Acuna 1100",
      "city": "LAGUNA BRAVA",
      "province": "CORRIENTES"
    },
    {
      "source_page": 5,
      "cell_id": null,
      "latitude": -27.467838,
      "longitude": -58.812733,
      "azimuth_deg": 130.0,
      "horizontal_aperture_deg": 67.0,
      "vertical_aperture_deg": null,
      "coverage_radius_km": 2.106,
      "signal_strength_dbm": null,
      "address": "Av. Gobernador Ruiz Esq. Estados Unidos S/N",
      "city": "CORRIENTES",
      "province": "CORRIENTES"
    },
    {
      "source_page": 5,
      "cell_id": null,
      "latitude": -27.439396,
      "longitude": -58.986537,
      "azimuth_deg": 40.0,
      "horizontal_aperture_deg": 67.0,
      "vertical_aperture_deg": null,
      "coverage_radius_km": 1.404,
      "signal_strength_dbm": null,
      "address": "Avenida Lavalle 755",
      "city": "RESISTENCIA",
      "province": "CHACO"
    },
    {
      "source_page": 5,
      "cell_id": null,
      "latitude": -27.467838,
      "longitude": -58.812733,
      "azimuth_deg": 130.0,
      "horizontal_aperture_deg": 67.0,
      "vertical_aperture_deg": null,
      "coverage_radius_km": 2.106,
      "signal_strength_dbm": null,
      "address": "Av. Gobernador Ruiz Esq. Estados Unidos S/N",
      "city": "CORRIENTES",
      "province": "CORRIENTES"
    },
    {
      "source_page": 5,
      "cell_id": null,
      "latitude": -27.472235,
      "longitude": -58.821673,
      "azimuth_deg": 130.0,
      "horizontal_aperture_deg": 67.0,
      "vertical_aperture_deg": null,
      "coverage_radius_km": 2.106,
      "signal_strength_dbm": null,
      "address": "Perú esquina Bolivar S/N",
      "city": "CORRIENTES",
      "province": "CORRIENTES"
    },
    {
      "source_page": 5,
      "cell_id": null,
      "latitude": -27.472235,
      "longitude": -58.821673,
      "azimuth_deg": 350.0,
      "horizontal_aperture_deg": 67.0,
      "vertical_aperture_deg": null,
      "coverage_radius_km": 1.17,
      "signal_strength_dbm": null,
      "address": "Perú esquina Bolivar S/N",
      "city": "CORRIENTES",
      "province": "CORRIENTES"
    },
    {
      "source_page": 5,
      "cell_id": null,
      "latitude": -27.461896,
      "longitude": -58.822407,
      "azimuth_deg": 250.0,
      "horizontal_aperture_deg": 67.0,
      "vertical_aperture_deg": null,
      "coverage_radius_km": 1.17,
      "signal_strength_dbm": null,
      "address": "Calle Gob. Rolon y Pampin S/N",
      "city": "CORRIENTES",
      "province": "CORRIENTES"
    },
    {
      "source_page": 5,
      "cell_id": null,
      "latitude": -27.510301,
      "longitude": -58.556233,
      "azimuth_deg": 130.0,
      "horizontal_aperture_deg": 67.0,
      "vertical_aperture_deg": null,
      "coverage_radius_km": 7.02,
      "signal_strength_dbm": null,
      "address": "Sarmiento e/Av J.Romero y Aviad.Argüello S/N",
      "city": "SAN LUIS DEL PALMAR",
      "province": "CORRIENTES"
    },
    {
      "source_page": 5,
      "cell_id": null,
      "latitude": -27.486515,
      "longitude": -58.770954,
      "azimuth_deg": 270.0,
      "horizontal_aperture_deg": 63.7,
      "vertical_aperture_deg": null,
      "coverage_radius_km": 2.106,
      "signal_strength_dbm": null,
      "address": "RP 5 (intersección calle César Alvarez) Km 1",
      "city": "LAGUNA BRAVA",
      "province": "CORRIENTES"
    },
    {
      "source_page": 5,
      "cell_id": null,
      "latitude": -27.480311,
      "longitude": -58.796037,
      "azimuth_deg": 240.0,
      "horizontal_aperture_deg": 63.7,
      "vertical_aperture_deg": null,
      "coverage_radius_km": 2.574,
      "signal_strength_dbm": null,
      "address": "s/n",
      "city": "CORRIENTES",
      "province": "CORRIENTES"
    },
    {
      "source_page": 5,
      "cell_id": null,
      "latitude": -28.246114,
      "longitude": -58.703985,
      "azimuth_deg": 110.0,
      "horizontal_aperture_deg": 70.8,
      "vertical_aperture_deg": null,
      "coverage_radius_km": 6.084,
      "signal_strength_dbm": null,
      "address": "Ruta Nacional 12 Km 940",
      "city": "SALADAS",
      "province": "CORRIENTES"
    }
  ]
}